stop_id,stop_name,stop_lat,stop_lon
1518,Ferrum Agro,56.96953,24.37367
1519,Ferrum Agro,56.96959,24.37377
5032,Ulbrokas vidusskola,56.92910,24.32064
5003,11.novembra krastmala,56.94577,24.10541
1025a,13.janvāra iela,56.94543,24.11311
1025b,13.janvāra iela,56.94571,24.11373
1025,13.janvāra iela,56.94562,24.11349
1251a,Autoosta,56.94639,24.11635
1251b,Autoosta,56.94621,24.11589
0529,Jaunciema 8.šķērslīnija,57.03792,24.18472
0173,Jaunciema kapi,57.04154,24.18861
1297,Bauskas šoseja,56.88129,24.16033
5259,Pagrieziens uz Baložiem,56.88551,24.15430
1296,Pagrieziens uz Baložiem,56.88442,24.15526
5323,Rāmava,56.88995,24.14813
5322,Rāmava,56.89110,24.14684
6445,Titurga,56.88204,24.15863
2038,Aristida Briāna iela,56.96286,24.12589
2032,K.Valdemāra iela,56.96291,24.12541
2039,Miera iela,56.96539,24.13254
0003,A.Čaka iela,56.96361,24.14962
0182,Dzirnavu iela,56.95058,24.12535
0114,Dzirnavu iela,56.95064,24.12520
0148,Ģertrūdes iela,56.95363,24.13146
2063,Ģertrūdes iela,56.95335,24.13082
0273,Matīsa iela,56.95654,24.13698
0270,Matīsa iela,56.95639,24.13647
0345,Pērnavas iela,56.96325,24.14954
0470,Tallinas iela,56.95896,24.14143
0469,Tallinas iela,56.95934,24.14199
5342,A.Saharova iela,56.94603,24.20855
5343,A.Saharova iela,56.94664,24.20523
5035a,Baltinavas iela,56.94320,24.23254
5036a,Baltinavas iela,56.94340,24.23110
0090,Dārzciema iela,56.94944,24.18412
5088,Dārzciema iela,56.94890,24.18737
0098,Daugavas stadions,56.95332,24.15537
5090,Daugavas stadions,56.95328,24.15477
5140,Ilūkstes iela,56.94743,24.19842
5141,Ilūkstes iela,56.94810,24.19430
9095,Kaivas iela,56.94398,24.24129
9096,Kaivas iela,56.94413,24.23991
0245,Lienes iela,56.95353,24.14738
0244,Lienes iela,56.95365,24.14774
5197,Liepiņas,56.94422,24.22229
5198,Liepiņas,56.94460,24.22103
0310,Nīcgales iela,56.95110,24.17079
0308,Nīcgales iela,56.95101,24.17224
9100,Ulbrokas iela 13,56.94587,24.21135
9101,Ulbrokas iela 13,56.94541,24.21344
7990,Viršu iela,56.95038,24.17627
7991,Viršu iela,56.95041,24.17666
0218,Kreimeņu iela,57.03605,24.09705
0255,"Kultūras pils ""Ziemeļblāzma""",57.03509,24.10036
0254,Martas Rinkas iela,57.03446,24.10240
0283,Melīdas iela,57.03227,24.10902
0282,Melīdas iela,57.03157,24.10997
5456,A.Deglava iela,56.94483,24.20657
5470,A.Saharova iela,56.94396,24.20571
5455,Akadēmiķa M.Keldiša iela,56.94170,24.20522
5471,Akadēmiķa M.Keldiša iela,56.94074,24.20434
0493,Pavasara gatve,56.93406,24.20199
0492,Pavasara gatve,56.93297,24.20106
0394,Rudens iela,56.93786,24.20314
0393,Rudens iela,56.93727,24.20334
5042,Beberbeķi,56.92646,23.91496
5041,Beberbeķi,56.92813,23.91622
5081,Dabas parks,56.93667,23.91854
5080,Dabas parks,56.93688,23.91910
4131,Pagrieziens uz Piņķiem,56.94603,23.92306
4132,Pagrieziens uz Piņķiem,56.94404,23.92294
7749a,Abrenes iela,56.94606,24.13053
7749,Abrenes iela,56.94606,24.13001
7749b,Abrenes iela,56.94607,24.13104
7749c,Abrenes iela,56.94602,24.13139
7749d,Abrenes iela,56.94595,24.13168
1613,Bukulti,57.02085,24.25880
1668,Lejasvīganti,57.00675,24.26126
1669,Lejasvīganti,57.00672,24.26116
2045,Āgenskalna iela,56.94591,24.06205
2046,Āgenskalna priedes,56.94459,24.05949
2094,Aizkraukles iela,56.97558,24.18760
2099,Aizkraukles iela,56.97530,24.18336
2093,"Slimnīca ""Linezers""",56.97710,24.19293
0196,Akadēmiķa M.Keldiša iela,56.94045,24.19660
0005,Dzeņu iela,56.93912,24.20657
0004,Dzeņu iela,56.93943,24.20665
0032,Bākas iela,57.05224,24.06924
0031,Bākas iela,57.05202,24.06830
1072,Anniņmuižas bulvāris,56.95990,24.01233
1085,Anniņmuižas bulvāris,56.96003,24.01380
1077,Anniņmuižas parks,56.95402,24.00860
1084,Anniņmuižas parks,56.95538,24.00893
1071,Kleistu iela,56.96024,24.01804
1086,Kleistu iela,56.95885,24.02189
1433,P.Lejiņa iela,56.94699,24.01210
8069,P.Lejiņa iela,56.94612,24.01144
1432,Priedaines iela,56.94300,24.01762
1431,Priedaines iela,56.94359,24.01609
1537,Apuzes iela,56.93373,24.03027
1427,Jūrkalnes iela,56.93948,24.02227
1428,Jūrkalnes iela,56.93929,24.02242
1429,Šampētera iela,56.93788,24.02483
1430,Šampētera iela,56.93736,24.02542
1403,Asītes iela,56.92182,24.07433
0013,Airu iela,57.04760,24.09548
0014,Airu iela,57.04779,24.09624
0030,Atlantijas iela,57.03779,24.08740
0029,Atlantijas iela,57.03652,24.08643
0337,Ķīļu iela,57.05023,24.10164
0336,Pagrieziens uz Vecmīlgrāvi,57.05054,24.10184
0215,Vecdaugavas iela,57.04450,24.09218
0214,Vecdaugavas iela,57.04459,24.09203
0089,Vecmīlgrāvja D/P,57.04188,24.08950
0088,Vecmīlgrāvja D/P,57.04198,24.08883
0009,Dārziņi,56.89565,24.17327
8015,Mākoņkalns,56.89501,24.16568
8016,Mākoņkalns,56.89506,24.16515
2076,Avotu iela,56.95066,24.13278
2069,Bruņinieku iela,56.95228,24.14022
0272,Matīsa iela,56.95291,24.14361
2070,Stabu iela,56.95149,24.13640
2077,Stabu iela,56.95159,24.13736
2033,Baložu iela,56.94571,24.07205
1307,Pagrieziens uz Baložiem,56.88461,24.15328
1316,Sūkņu stacija,56.88353,24.14728
1308,Sūkņu stacija,56.88349,24.14686
0041,Baltāsbaznīcas iela,57.03630,24.09110
5010,Āgenskalna tirgus,56.93569,24.07240
5011,Āgenskalna tirgus,56.93571,24.07280
1112,E.Smiļģa iela,56.93682,24.07786
1242,E.Smiļģa iela,56.93665,24.07701
5136,Bišumuiža,56.91498,24.14039
5137,Bišumuiža,56.91408,24.14151
1280,Doles iela,56.91584,24.13235
1281,Doles iela,56.91595,24.13443
5294,Jāņa Čakstes gatve,56.90852,24.14607
1264,Koku iela,56.92221,24.09564
1269,Koku iela,56.92208,24.09572
1277,Mazā Stērstu iela,56.91374,24.11830
5295,Piena kombināts,56.91124,24.14529
5324,Rāmava,56.89176,24.14820
1292,Sarma,56.89581,24.14746
1293,Sarma,56.89716,24.14737
1274,Skaistkalnes iela,56.91782,24.10387
1275,Skaistkalnes iela,56.91795,24.10361
1272,Stērstu iela/CSDD,56.91473,24.11341
1273,Stērstu iela/CSDD,56.91500,24.11242
1286,Štrausi,56.90696,24.14627
1287,Štrausi,56.90580,24.14630
5424,Valdlauču centrs,56.90251,24.14668
1289,Valdlauču centrs,56.90124,24.14673
1278,Ziepniekkalna iela,56.91409,24.12139
1279,Ziepniekkalna iela,56.91510,24.12282
1070,Bebru iela,56.95753,24.02616
1087,Bebru iela,56.95743,24.02830
0342,Berģuciems,56.97801,24.30995
0129,Ezerkrasti,56.97945,24.30556
0174,Jaunības iela,56.98564,24.29746
0175,Jaunības iela,56.98560,24.29734
0241,Lejasciema iela,56.98333,24.30016
0240,Lejasciema iela,56.98313,24.30057
0258,Mākoņu iela,56.97986,24.30494
0390,Rožu iela,56.99773,24.27706
0389,Rožu iela,56.99772,24.27688
0464,Tadenavas iela,56.98725,24.29476
0463,Tadenavas iela,56.98764,24.29430
0332,Upesciema iela,56.99008,24.29103
0333,Upesciema iela,56.99033,24.29105
0021,Vējdzirnavu iela,56.99486,24.28172
0022,Vējdzirnavu iela,56.99526,24.28109
1514,Bebrenes iela,56.95749,24.29319
1527,Bebrenes iela,56.95755,24.29304
1512,"Bērnu slimnīca ""Gaiļezers""",56.95620,24.25645
1529,"Bērnu slimnīca ""Gaiļezers""",56.95631,24.25438
0055,Biķernieku iela,56.97262,24.16851
0188,Biķernieku mežs,56.96504,24.20954
0187,Biķernieku mežs,56.96566,24.20741
1513,Brekši,56.95709,24.28788
1528,Brekši,56.95725,24.28729
1531,Burtnieku iela,56.96967,24.18460
1532,Burtnieku iela,56.96990,24.18279
1511,"Ķeguma iela/Stacionārs ""Biķernieki""",56.96804,24.19391
1530,"Ķeguma iela/Stacionārs ""Biķernieki""",56.96792,24.19503
1510,Laimdotas iela,56.96899,24.18829
1515,Nautrēnu iela,56.95925,24.29861
1526,Nautrēnu iela,56.95900,24.29753
1516,"Papīrfabrika ""Jugla""",56.96075,24.30231
1525,"Papīrfabrika ""Jugla""",56.96082,24.30218
0378,Ratnieki,56.95742,24.24000
0379a,Ratnieki,56.95803,24.23653
0409,S.Eizenšteina iela,56.95951,24.23039
0407,S.Eizenšteina iela,56.95910,24.23236
0456,Struktoru iela,56.97145,24.17327
0465,Tālivalža iela,56.97075,24.17786
1509,Tālivalža iela,56.97039,24.17970
1290a,Brīvības piemineklis,56.95243,24.11434
1290b,Brīvības piemineklis,56.95214,24.11388
0194,Esplanāde,56.95347,24.11597
0194b,Esplanāde,56.95384,24.11657
0194c,Esplanāde,56.95322,24.11558
1490,Tērbatas iela,56.95303,24.11615
0006,Alfa,56.98381,24.20178
0038,Bajāru iela,56.97635,24.17693
0039,Bajāru iela,56.97605,24.17567
0227,Berģi,56.99897,24.27358
0228,Berģi,56.99927,24.27352
0057,Brīvdabas muzejs,56.99625,24.26476
0056,Brīvdabas muzejs,56.99662,24.26464
0112,Dzērbenes iela,56.98105,24.19237
0111,Dzērbenes iela,56.98078,24.19117
0419,Gustava Zemgala gatve,56.97371,24.16807
0418,Gustava Zemgala gatve,56.97382,24.16873
0180,Juglas iela,56.98901,24.23837
0181,Juglas iela,56.98996,24.24245
0222,Krustabaznīcas iela,56.98231,24.19657
0221,Krustabaznīcas iela,56.98191,24.19489
0301,Mārkalnes iela,56.98809,24.23085
2024,Palmu iela,56.97790,24.18204
0455,Struktoru iela,56.97524,24.17341
2018,Šmerlis,56.98484,24.20858
0436,Šmerļa iela,56.98551,24.20957
2018a,Šmerļa iela,56.98510,24.20876
0045,Tirzas iela,56.98718,24.22308
0399,VEF,56.97107,24.15931
0400,VEF,56.97188,24.16271
0208,Zemitāna laukums,56.97921,24.18637
0207,Zemitāna laukums,56.97918,24.18598
0081,Cēsu iela,56.96554,24.14331
0080,Cēsu iela,56.96584,24.14369
0145,Ģertrūdes iela,56.95676,24.12194
7987,Ģertrūdes iela,56.95663,24.12204
0219,K.Barona iela,56.96786,24.14997
0220,K.Barona iela,56.96789,24.14961
2023,K.Barona iela,56.96797,24.15031
0269,Matīsa iela,56.96029,24.13050
0268,Matīsa iela,56.96027,24.13084
2020,Matīsa iela,56.95996,24.12951
2021,Matīsa iela,56.96000,24.13012
0466,Tallinas iela,56.96246,24.13588
0468,Tallinas iela,56.96329,24.13755
2022,Tallinas iela,56.96272,24.13653
1494,A.Čaka iela,56.95447,24.13523
1496,Brīvības iela,56.95861,24.12714
5463,Rīgas 1.slimnīca,56.96013,24.12469
1495,Tērbatas iela,56.95702,24.13023
1171,Vakarbuļļi,57.00100,23.94337
0637,Buļļu iela,56.96477,24.05906
1220,Buļļu iela,56.96648,24.05547
0615,Dzirciema iela,56.96475,24.05937
1221,Dzirciema iela,56.96598,24.05635
1208,Garā iela,56.96898,24.05030
1209,Garā iela,56.96860,24.05110
1051,Kleistu iela,56.97595,24.03262
1053,Kleistu iela,56.97577,24.03330
1052,Lāčupes kapi,56.97733,24.02668
1202,Lāčupīte,56.97504,24.03644
1203,Lāčupīte,56.97517,24.03637
0614,Saldus iela,56.96213,24.06358
0638,Saldus iela,56.96168,24.06491
1206,Saulgožu iela,56.96970,24.04722
1207,Spilves iela,56.96963,24.04860
1204,Virbu iela,56.97233,24.04089
1205,Virbu iela,56.97152,24.04234
2055,Jelgavas iela,56.93174,24.09953
1520,Mucenieki,56.96005,24.37555
8019,Pagrieziens uz Muceniekiem,56.95996,24.37566
1300,Ādiņas,56.87965,24.17274
1301,Ādiņas,56.87988,24.17376
1303,Dzelzskalni,56.88334,24.18310
1306,Dzelzskalni,56.88339,24.18291
1304,Kalnavoti,56.88319,24.18970
8056,Kalnavoti,56.88314,24.18970
1305,Katlakalns,56.88444,24.19306
1298,Vidēji,56.87967,24.16756
1299,Vidēji,56.87971,24.16778
8067,Mucenieki,56.95887,24.37973
2112,Brīvības iela,56.96305,24.13597
0467,Tallinas iela,56.96273,24.13567
0033,Augstrozes iela,56.98333,24.16018
0315,Čiekurkalna 2.šķērslīnija,56.98264,24.16653
0350,Čiekurkalna 5.šķērslīnija,56.98296,24.17354
0028,Čiekurkalna 8. šķērslīnija,56.98322,24.18106
0316,Čiekurkalna 2.šķērslīnija,56.98552,24.16613
0082,Čiekurkalna 4.šķērslīnija,56.98577,24.17099
0423,Čiekurkalna 6.šķērslīnija,56.98607,24.17726
0104,Čiekurkalna 9.šķērslīnija,56.98635,24.18285
1380,Dauguļu iela,56.92144,24.04650
1381,Dauguļu iela,56.92144,24.04537
0139,Ganību dambis,56.98841,24.12306
0140,Ganību dambis,56.98851,24.12278
0091,Dārzciema iela,56.93270,24.18190
1503,Dārzciema iela,56.94488,24.18275
0352,Pildas iela,56.94136,24.18163
1508,Pildas iela,56.94216,24.18216
5469,Sesku iela,56.94533,24.18328
0454,Strautu iela,56.93734,24.18209
0453,Strautu iela,56.93850,24.18237
0094,Dārziņi,56.85944,24.29716
0533,Dārziņu 27.līnija,56.86790,24.27810
0534,Dārziņu 27.līnija,56.86822,24.27793
0538,Dārziņu 38.līnija,56.86107,24.28593
0537,Dārziņu 38.līnija,56.86186,24.28457
0540,Dārziņu 46.līnija,56.85989,24.29089
0541,Dārziņu 46.līnija,56.85995,24.29125
0411,Sakņu iela,56.86331,24.28268
0410,Sakņu iela,56.86345,24.28237
5204,Mārupes novada dome,56.90574,24.05568
5205,Mārupes novada dome,56.90595,24.05616
5315,Purmaļi,56.89765,24.03487
5316,Purmaļi,56.89768,24.03548
5361,Senči,56.89983,24.04377
5362,Senči,56.90003,24.04500
5438,Vizmas,56.89058,24.00593
5440,Zaigas,56.89432,24.02077
5441,Zaigas,56.89442,24.02160
5091,Daugavgrīvas iela,56.94507,24.08178
1226,Dzegužkalns,56.96220,24.07116
1227,Dzegužkalns,56.96120,24.07073
1228,Iļģuciems,56.96578,24.07159
1229,Iļģuciems,56.96597,24.07146
0612,Kliņģeru iela,56.95329,24.07043
0640,Kliņģeru iela,56.95293,24.07030
1129,Lidoņu iela,56.97111,24.07343
1130,Lidoņu iela,56.97145,24.07331
1135,Pagrieziens uz Voleriem,56.98866,24.08296
1133,Podraga iela,56.97798,24.07999
1134,Podraga iela,56.97855,24.08096
1131,Spilves lidlauks,56.97415,24.07559
1132,Spilves lidlauks,56.97494,24.07620
0613,Ūdens iela,56.95628,24.07041
0639,Ūdens iela,56.95523,24.06984
1144,Beķermuiža,57.00613,24.07626
1145,Beķermuiža,57.00686,24.07580
1148,Guberņciems,57.01817,24.05725
1149,Guberņciems,57.01836,24.05605
1141,Pagrieziens uz Voleriem,56.98923,24.08215
1142,Voleri,56.99799,24.07713
1143,Voleri,56.99872,24.07723
1146,Zilā iela,57.01311,24.06934
1147,Zilā iela,57.01212,24.07089
0106,Duntes iela,56.99232,24.12559
8005,Laktas iela,56.97934,24.13657
8006,Laktas iela,56.97830,24.13601
0318,Ozolaine/Jūras medicīnas centrs,56.98733,24.13300
0317,Ozolaine/Jūras medicīnas centrs,56.98653,24.13385
0486,Tilta iela,56.99243,24.12558
0482,Traumatoloģijas un ortopēdijas slimnīca,56.98378,24.13604
0483,Traumatoloģijas un ortopēdijas slimnīca,56.98292,24.13627
7992,Vītolu iela,56.98891,24.13062
2016,Vītolu iela,56.99035,24.12953
0445,Gustava Zemgala gatve,56.96253,24.17099
0161,Ilūkstes iela,56.95550,24.19729
0156,Ilūkstes iela,56.95556,24.19890
0280,Mēbeļu nams,56.95636,24.19119
0279,Mēbeļu nams,56.95668,24.19113
0306,Nīcgales iela,56.95969,24.17672
0371,Purvciems,56.95433,24.20553
0372,Purvciems,56.95478,24.20480
0309,Stirnu iela,56.95899,24.18050
0450,Stirnu iela,56.95860,24.18086
1165,Attīrīšanas iekārtas,57.02888,23.99725
1177,Attīrīšanas iekārtas,57.02955,23.99850
1168,Dzelmes iela,57.01429,23.97749
1174,Dzelmes iela,57.01455,23.97849
1163,Memmes pļava,57.03509,24.01232
1179,Memmes pļava,57.03500,24.01272
1166,Roņu iela,57.02133,23.99277
1176,Roņu iela,57.02156,23.99318
1169,Vētras iela,57.01308,23.97513
1173,Vētras iela,57.01293,23.97487
1167,Zēģeļu iela,57.01789,23.98585
1175,Zēģeļu iela,57.01768,23.98562
1164,Ziemeļupe,57.03398,24.00362
1178,Ziemeļupe,57.03422,24.00575
1118,Botāniskais dārzs,56.95204,24.05391
1236,Botāniskais dārzs,56.94968,24.05440
1126,Buļļu iela,56.96695,24.05778
1235,Dārza iela,56.95287,24.05353
1214,Dzirciema iela,56.97797,24.05462
1212,Dzirciema iela 119,56.97406,24.05583
1217,Dzirciema iela 119,56.97404,24.05572
1233,Mazā Stacijas iela,56.95958,24.05224
1215,Nordeka,56.97681,24.05505
1119,Sēlpils iela/Donoru centrs,56.95693,24.05248
1234,Sēlpils iela/Donoru centrs,56.95615,24.05262
1124,Slokas iela,56.96144,24.05387
0616,Vaidelotes iela,56.96418,24.05568
0636,Vaidelotes iela,56.96335,24.05526
2072,Dzirnavu iela,56.94891,24.12561
1600,E.Birznieka-Upīša iela,56.94864,24.12439
2071,Lāčplēša iela,56.94978,24.13127
2075,Visvalža iela,56.94917,24.12791
9090,Ē.Valtera iela,56.94559,24.23705
0235,Langstiņi,57.01006,24.32632
0237,Lapsukalni,56.98702,24.33785
0236,Lapsukalni,56.98716,24.33802
0192,Mediķu iela,57.00384,24.33165
0191,Mediķu iela,57.00390,24.33180
0495,Upesciems,56.98214,24.33773
0494,Upesciems,56.98193,24.33773
0518,Ziemeļnieki,56.99558,24.33508
0519,Ziemeļnieki,56.99583,24.33522
7984,Elizabetes iela,56.95825,24.10808
5464,K.Valdemāra iela,56.95683,24.11296
0124,Emmas iela,57.03368,24.11843
0108,Gāles iela,57.03352,24.11855
0349,Vecmīlgrāvja 5.līnija,57.03117,24.11383
0348,Vecmīlgrāvja 5.līnija,57.03097,24.11365
0361,Aizsardzības akadēmija,56.99379,24.17769
8074,Aizsardzības akadēmija,56.99323,24.18080
0131,Krustabaznīcas iela,56.99239,24.18576
4001,Krustabaznīcas iela,56.99230,24.18705
0211,Ķīšezera iela,56.99533,24.17228
0210,Ķīšezera iela,56.99461,24.17310
0290,Meža prospekts,57.00646,24.16541
0422,Saules dārzs,57.00168,24.17047
0421,Saules dārzs,57.00167,24.16992
0485,Sporta bāze,57.00387,24.16842
0484,Sporta bāze,57.00360,24.16865
0458,Sudrabu Edžus iela,56.99821,24.17099
0457,Sudrabu Edžus iela,56.99895,24.17039
8014,Daugavgrīvas cietoksnis,57.04272,24.03561
1183,Daugavgrīvas cietoksnis,57.04240,24.03555
0242,Lielvārdes iela,56.96149,24.19829
0243,Lielvārdes iela,56.96139,24.19753
1150,Silikātu iela,57.02885,24.04646
1151,Silikātu iela,57.02797,24.04679
0527,"Slimnīca ""Gaiļezers""",56.96802,24.23979
2118,Centrāltirgus,56.94476,24.12039
7985,1.trolejbusu parks,56.98780,24.12156
7986,1.trolejbusu parks,56.98693,24.12113
0252,Lugažu iela,56.97479,24.11199
0253,Lugažu iela,56.97385,24.11100
0346,Pētersalas iela,56.96866,24.10696
0347,Pētersalas iela,56.96901,24.10708
0134,Rāmuļu iela,56.98582,24.12091
0136,Rāmuļu iela,56.98509,24.12019
0374,Rankas iela,56.98015,24.11637
0375,Rankas iela,56.97877,24.11502
0387,"Rūpnīca ""RER""",56.99090,24.12200
0388,"Rūpnīca ""RER""",56.99119,24.12231
0500,Vecāķi,57.07681,24.10986
0015,Aizsaules iela,56.98165,24.14872
9105,Čiekurkalna 3.šķērslīnija,56.98730,24.16711
0428,Jāņa Poruka vidusskola,56.98466,24.15759
0473,Tēraudlietuves iela,56.98264,24.15164
8050,Stūrmaņu iela,57.03339,24.04856
8012,Stūrmaņu iela,57.03402,24.04786
0079,Centrālā stacija,56.94568,24.11930
0078,Centrāltirgus,56.94533,24.11950
0078b,Centrāltirgus,56.94451,24.12119
0113,Dzirnavu iela,56.94196,24.12790
0149,Gogoļa iela,56.94210,24.12950
1444,Zantes iela,56.94418,24.01256
1445,Zantes iela,56.94406,24.01157
1472,Acone,56.91464,24.28569
1474,Acone,56.91482,24.28417
1469,Ciemats,56.91374,24.25791
1477,Ciemats,56.91384,24.25660
1470,Dārziņi,56.91408,24.26698
1476,Dārziņi,56.91418,24.26562
1464,Granīta iela,56.90859,24.21208
1466,Granīta iela 13,56.91271,24.22946
1480,Granīta iela 13,56.91279,24.22871
1552,Granīta iela 5,56.91250,24.22399
1553,Granīta iela 5,56.91259,24.22260
1482,Krustpils iela,56.90887,24.21221
1465,Malēju iela,56.91169,24.21712
1481,Malēju iela,56.91161,24.21666
1467,Rožkalni,56.91299,24.23725
1479,Rožkalni,56.91306,24.23599
1468,Stūraiņu iela,56.91327,24.24495
1478,Stūraiņu iela,56.91338,24.24430
1473,TEC- 2,56.91503,24.29088
1471,TEC- 2 pārvalde,56.91439,24.27648
1475,TEC- 2 pārvalde,56.91451,24.27512
2104,Graudu iela,56.91135,24.10248
2106,Līvciema iela,56.90866,24.09723
2109,Līvciema iela,56.90931,24.09878
0085,Čiekurkalna stacija,56.97878,24.16345
0086,Čiekurkalna stacija,56.97849,24.16325
0447,Stārķu iela,56.96431,24.16883
2003,A.Čaka iela,56.95256,24.13128
2008,A.Čaka iela,56.95345,24.12987
2004,Avotu iela,56.95065,24.13471
2007,Avotu iela,56.95136,24.13364
2002,K.Barona iela,56.95515,24.12663
2010,K.Barona iela,56.95475,24.12754
2005,Valmieras iela,56.94742,24.14055
5133,Ģimnastikas iela,56.91946,24.07416
0054,Biķernieku iela,56.95891,24.23818
0151,Hipokrāta iela,56.95979,24.23837
0542,Mežciema pamatskola,56.96243,24.23852
0543,Mežciema pamatskola,56.96334,24.23874
8030,Mežciems,56.97074,24.24280
0528,"Slimnīca ""Gaiļezers""",56.96683,24.24017
7988,"Slimnīca ""Gaiļezers""",56.96836,24.24142
0109,"Stacionārs ""Biķernieki""",56.96643,24.19896
0446,Stārķu iela,56.96550,24.16678
1170,Pludmale,57.01663,23.96983
1172,Pludmale,57.01605,23.97139
0107,Dzelzavas iela,56.95384,24.19930
0476,Sesku iela,56.94518,24.19585
0479,Sesku iela,56.94719,24.19604
0159,Varavīksnes gatve,56.95340,24.19895
0157,Zemes iela,56.94246,24.19548
5030,Āvas,56.92921,24.31668
5031,Āvas,56.92978,24.31545
5062,Brasliņas,56.93344,24.30794
5063,Brasliņas,56.93386,24.30760
5143,Institūts,56.94281,24.28446
5142,Institūts,56.94311,24.28369
5406,Ulbroka,56.94052,24.29210
2086,Latvijas Universitāte,56.95096,24.11542
2067,J.Asara iela,56.95625,24.15230
2068,Lienes iela,56.95377,24.14677
2078,Lienes iela,56.95397,24.14748
0536,Dārziņu 29.līnija,56.86186,24.27614
0535,Dārziņu 29.līnija,56.86192,24.27634
0539,Dārziņu 38.līnija,56.86142,24.28424
0096,Jāņogu iela,56.86296,24.26872
0123,Āliņģu iela,57.03527,24.11839
0125,Āliņģu iela,57.03524,24.11819
0355,Jaunciema 1.šķērslīnija,57.05048,24.17211
0356,Jaunciema 1.šķērslīnija,57.05068,24.17222
0102,Jaunciema 10.šķērslīnija,57.03184,24.18769
0103,Jaunciema 10.šķērslīnija,57.03204,24.18777
0133,Jaunciema 2.šķerslīnija,57.04570,24.17339
0135,Jaunciema 2.šķerslīnija,57.04600,24.17357
0083,Jaunciema 4.šķērslīnija,57.04173,24.17343
0084,Jaunciema 4.šķērslīnija,57.04245,24.17345
0501,Jaunciema 6.šķērslīnija,57.03949,24.17524
0508,Jaunciema 6.šķērslīnija,57.03863,24.17563
0118,Jaunciema gatve 233,57.04323,24.11498
0119,Jaunciema gatve 233,57.04326,24.11477
0184,Kalēji,57.05250,24.13859
0183,Kalēji,57.05261,24.13743
0212,Klipiņas,57.01292,24.23224
0213,Klipiņas,57.01283,24.23243
0226,Kūdras bāze,57.00451,24.25212
0225,Kūdras bāze,57.00453,24.25171
0293,Langa,57.05277,24.14381
0294,Langa,57.05293,24.14477
0247,Līgeri,57.05139,24.12800
0246,Līgeri,57.05100,24.12716
0475,Mīlgrāvja  tilts,57.03192,24.13409
0474,Mīlgrāvja tilts,57.03101,24.13559
0295,Milnas,57.00920,24.24367
0296,Milnas,57.00925,24.24338
0072,Niedru iela,57.04568,24.11969
0073,Niedru iela,57.04537,24.11905
0319,Ozoli,57.04830,24.12372
0320,Ozoli,57.04877,24.12395
0322,Ozolkalni,57.01185,24.22056
0321,Ozolkalni,57.01176,24.22090
0068,Pagrieziens uz Bukultiem,57.00367,24.25923
0069,Pagrieziens uz Bukultiem,57.00360,24.25918
0328,Pagrieziens uz Carnikavu,57.05291,24.15608
0329,Pagrieziens uz Carnikavu,57.05299,24.15394
0185,Pagrieziens uz Jaunciema kapiem,57.03660,24.18448
0186,Pagrieziens uz Jaunciema kapiem,57.03696,24.18279
0460,Suži,57.01860,24.20791
8004,Suži,57.01884,24.20810
0517,Ziemeļblāzma,57.03941,24.11285
0516,Ziemeļblāzma,57.03890,24.11311
0522,Zundagi,57.05257,24.16823
0521,Zundagi,57.05236,24.16941
1266,Bieķensalas iela,56.93101,24.09869
1267,Bieķensalas iela,56.93021,24.09775
2050,Jelgavas iela,56.92367,24.09030
1265,Satiksmes iela,56.92693,24.09296
1268,Satiksmes iela,56.92675,24.09276
2051,Vienības gatve,56.92356,24.09001
0441,Zemitānu stacija,56.96478,24.15670
0443,Zemitānu stacija,56.96495,24.15611
0052,"Bērnu slimnīca ""Gaiļezers""",56.95877,24.25277
0053,"Bērnu slimnīca ""Gaiļezers""",56.95977,24.25302
0363,Ciemupes iela,56.98829,24.24415
0177,Jugla,56.97539,24.25444
0176,Jugla,56.97657,24.25453
0339,Pāles iela,56.98676,24.24812
0338,Pāles iela,56.98531,24.24798
0165,Strazdumuižas internātskola,56.98258,24.25132
0166,Strazdumuižas internātskola,56.98277,24.25069
0649,Irlavas iela,56.94342,24.02853
0650,Mikus iela,56.94300,24.02774
0645,Zasulauka depo,56.94510,24.03437
0646,Zasulauka depo,56.94509,24.03401
1457,Anniņmuižas parks,56.95356,24.00995
1456,Anniņmuižas parks,56.95348,24.01100
1452,Beberbeķu iela,56.95371,23.97203
1551,Beberbeķu iela,56.95394,23.97189
1042,Botāniskais dārzs,56.95139,24.05274
1090,Botāniskais dārzs,56.95119,24.05514
1550,Ceļš uz Vārnukrogu,56.95976,23.95258
1078,Dubultu iela,56.95343,24.00414
1083,Dubultu iela,56.95341,24.00551
1449,Ērkšķu iela,56.95349,23.99015
1455,Ērkšķu iela,56.95344,23.99078
1460,Imantas 7.līnija,56.95227,24.02298
1461,Imantas 7.līnija,56.95230,24.02425
1462,Kooperatīva iela,56.95220,24.02931
1463,Kooperatīva iela,56.95213,24.03037
1043,Kurzemes prospekts,56.95214,24.03689
1089,Kurzemes prospekts,56.95204,24.03651
1451,Ķiburgas iela,56.95374,23.97869
1453,Ķiburgas iela,56.95366,23.97973
1450,Lazdu iela,56.95359,23.98530
1454,Lazdu iela,56.95359,23.98307
1458,Pedagoģijas fakultāte,56.95310,24.01623
1459,Pedagoģijas fakultāte,56.95293,24.01682
1079,Zolitūdes iela,56.95325,23.99809
1082,Zolitūdes iela,56.95323,23.99900
5272,Darbnīcas,56.95245,23.91344
0020,Alojas iela,56.96757,24.13079
0027,Aristida Briāna iela,56.96357,24.12596
0067,Bruņinieku iela,56.96093,24.12170
0066,Bruņinieku iela,56.96178,24.12284
0122,E.Melngaiļa iela,56.95923,24.11856
0120,Elizabetes iela,56.95611,24.11258
0128,Ēveles iela,56.97069,24.13330
0126,Ēveles iela,56.96898,24.13173
0153,Ierēdņu iela,56.97434,24.13557
0152,Ierēdņu iela,56.97332,24.13517
0611,Ķīpsala,56.94991,24.08708
0642,Ķīpsala,56.94921,24.08672
0233,Lāčplēša iela,56.95818,24.11688
0259,Mākslas muzejs,56.95565,24.11133
0610,Nacionālais teātris,56.95377,24.10646
0340,Palīdzības iela,56.96474,24.12758
5384,Valsts arhīvs,56.94647,24.07532
1094,Valsts arhīvs,56.94646,24.07594
0643,Zigfrīda Annas Meierovica bulvāris,56.95393,24.10706
1517,Sunīši,56.97193,24.37665
0275,Mazā Kalna iela,56.94232,24.14533
5034,Baložu iela,56.94490,24.07201
5288,Dreiliņu iela,56.94173,24.06201
5289,Dreiliņu iela,56.94176,24.06249
1413,Kalnciema iela,56.93565,24.03877
1423,Kalnciema iela,56.93350,24.03176
1534,Melnsila iela,56.94358,24.06877
1548,Melnsila iela,56.94357,24.06903
1422,Pleskodāles iela,56.93084,24.02581
1039,Slokas iela,56.94575,24.07543
1424,Ventspils iela,56.93523,24.03735
1421,Zolitūdes iela,56.92942,24.02216
0121,Elizabetes iela,56.95796,24.10619
2120,Medicīnas muzejs,56.95725,24.10730
0012,Brūkleņu iela,56.91912,24.05066
5065,Brūkleņu iela,56.91931,24.05191
5189,Lamberti,56.91755,24.02548
5188,Lamberti,56.91757,24.02646
5376,Mārupes vidusskola,56.91824,24.03607
5375,Mārupes vidusskola,56.91825,24.03732
5221,Mežotnes iela,56.92121,24.06502
5220,Mežotnes iela,56.92100,24.06498
5409,Upesgrīvas iela,56.91871,24.04289
5410,Upesgrīvas iela,56.91856,24.04239
2037,Kapseļu iela,56.94305,24.07130
1153,19.vidusskola,57.03568,24.04439
8013,19.vidusskola,57.03531,24.04559
8040,Bolderājas poliklīnika,57.03736,24.03970
1155,Bolderājas poliklīnika,57.03668,24.04068
6454,Beberbeķu iela,56.94969,23.96132
8085,Beberbeķu iela,56.94928,23.96092
5132,Gaviezes iela,56.94870,23.98874
5131,Gaviezes iela,56.94782,23.99001
5218,Mežmalas iela,56.94359,23.99660
5219,Mežmalas iela,56.94376,23.99573
1263,Mūkusalas rotācijas aplis,56.92330,24.10427
1276,Mūkusalas rotācijas aplis,56.92213,24.10354
1359,Telts iela,56.91845,24.08924
1361,Telts iela,56.91902,24.09121
5450,Zolitūdes iela,56.92942,24.01646
5449,Zolitūdes iela,56.92897,24.01584
0193,Kastrānes iela,56.96965,24.17812
0380,Raunas iela,56.96867,24.17765
0490,Ūnijas iela,56.96637,24.17664
1504,Katlakalna iela,56.93063,24.19845
1602,Katlakalna iela,56.93027,24.19908
1709,Pumpas,56.97890,23.97659
0621,6.autobusu parks,56.97168,24.03135
0631,6.autobusu parks,56.97230,24.03165
5451,6.autobusu parks,56.97025,24.03080
9082,Anniņmuižas ģimnāzija,56.96254,24.02337
1194,Bumbu kalniņš,57.00249,24.02761
1195,Bumbu kalniņš,57.00323,24.02753
0622,Gaiļi,56.97520,24.03440
0630,Gaiļi,56.97492,24.03392
1192,Jaunie Bolderājas kapi,57.01715,24.01762
1193,Jaunie Bolderājas kapi,57.01740,24.01770
0623,Kleistu iela 37,56.97883,24.03564
0629,Kleistu iela 37,56.97801,24.03554
1666,Liepezers,56.98439,24.00135
1667,Liepezers,56.98394,23.99998
0620,Mellužu iela,56.96669,24.02701
0632,Mellužu iela,56.96696,24.02704
1664,Mežāres,56.97464,23.96883
1665,Mežāres,56.97644,23.96942
1198,Pagrieziens uz Kleistiem,56.98426,24.03291
1199,Pagrieziens uz Kleistiem,56.98294,24.03337
1708,Pumpas,56.97843,23.97450
1662,Spilve,56.96453,23.96273
1663,Spilve,56.96470,23.96323
1196,Spilves pļavas,56.99784,24.02938
1197,Spilves pļavas,56.99717,24.02943
0385,Klijānu iela,56.97452,24.14460
8026,"Atpūtas centrs ""Lido""",56.92710,24.15899
0162,"Atpūtas centrs ""Lido""",56.92425,24.16282
8028,Balvu iela,56.93283,24.14486
5397,Grēdu iela,56.93106,24.15173
5002,Toma iela/Mols,56.93408,24.14275
0040,Baltāsbaznīcas iela,57.03562,24.09465
2034,Melnsila iela,56.94426,24.06647
1488,Depo,56.91177,24.20589
1489,Depo,56.91243,24.20486
1484,Dzelzceļa pārbrauktuve,56.91806,24.19679
1506,Katlakalna iela,56.92706,24.18679
1507,Katlakalna iela,56.92502,24.18799
1604,Krustpils  iela,56.92931,24.18302
1505,Krustpils iela 53,56.91978,24.19412
1485,Krustpils iela 53,56.92098,24.19324
1605,Lubānas iela,56.92976,24.18313
1483,Rājumsila iela,56.91484,24.20096
1487,Rājumsila iela,56.91519,24.20029
1407,Ozolnieku iela,56.93000,24.05838
1408,Ozolnieku iela,56.93085,24.05715
0025,Aptiekas iela,56.99897,24.11674
0429,Kundziņsala,57.00107,24.10583
2006,Ģertrūdes iela,56.94876,24.13750
1024,Airītes iela,56.95932,23.99724
1608,Airītes iela,56.95992,23.99775
0619,"ATC ""Latina""",56.96343,24.03021
0633,"ATC ""Latina""",56.96326,24.02967
1080,Ceriņu iela,56.95561,23.99773
1081,Ceriņu iela,56.95681,23.99734
1059,Dammes iela,56.96811,24.00956
1065,Dammes iela,56.96851,24.01114
1060,Imanta 4,56.96485,24.00227
1064,Imanta 4,56.96549,24.00436
1062,Imantas D/P,56.96002,23.99587
1062c,Imantas D/P,56.96011,23.99625
1062d,Imantas D/P,56.96020,23.99609
1062e,Imantas D/P,56.96019,23.99568
1088,Jūrmalas gatve,56.95367,24.03464
1057,Kleistu iela,56.96656,24.02311
1067,Kleistu iela,56.96659,24.02210
1061,Pagrieziens uz Babīti,56.96199,23.99872
1063,Pagrieziens uz Babīti,56.96292,23.99980
1044,Progresa iela,56.95543,24.03528
1045,Progresa iela,56.95789,24.03530
1058,Rigondas gatve,56.96903,24.01752
1066,Rigondas gatve,56.96855,24.01770
1046,Sudrabkalniņš,56.96097,24.03524
1069,Sudrabkalniņš,56.95992,24.03475
0209,Ķīšezera iela,56.99521,24.17175
0406,Rusova iela/Valsts ieņēmumu dienests,56.98874,24.16443
0405,Rusova iela/Valsts ieņēmumu dienests,56.98856,24.16407
1102,Maskavas iela,56.94052,24.12997
0036,Lomonosova iela,56.93915,24.15537
0498,Vagonu parks,56.94230,24.15512
0099,Daugavpils iela,56.94171,24.13979
1127,Cementa iela,56.96937,24.05913
1231,Cementa iela,56.96870,24.05852
1128,Spilves iela,56.97170,24.06499
1230,Spilves iela,56.97159,24.06331
1188,Buļļupe,57.02561,24.02566
1189,Buļļupe,57.02539,24.02555
1190,Lielā iela,57.02211,24.01856
1191,Lielā iela,57.02203,24.01851
1546,Kauguru iela,56.93618,24.04649
1545a,Upesgrīvas iela/ Spice,56.93148,24.03661
8021,Upesgrīvas iela/ Spice,56.93079,24.03431
5328,Ventas iela,56.93538,24.04401
1701,80.vidusskola,56.95858,24.20383
1702,80.vidusskola,56.95924,24.20304
2100,Lielvārdes iela,56.97632,24.18812
0110,"Stacionārs ""Biķernieki""",56.96515,24.19910
2092,Zemitāna laukums,56.97782,24.18625
0010,Brūkleņu iela,56.92261,24.05276
0011,Brūkleņu iela,56.92220,24.05221
1374,Mārupes iela,56.93183,24.07121
1375,Mārupes iela,56.93187,24.07105
8023,Mežotnes iela,56.92407,24.05535
8063,Mežotnes iela,56.92479,24.05641
1376,Paula Stradiņa slimnīca,56.92968,24.06534
1377,Paula Stradiņa slimnīca,56.92952,24.06474
1378,Raudas iela,56.92647,24.06131
1379,Raudas iela,56.92658,24.06158
0100,Daugmales stacija,56.91003,24.19949
0101,Daugmales stacija,56.91068,24.19835
0155,Ikšķiles iela,56.90482,24.20966
0154,Ikšķiles iela,56.90477,24.21006
0248,Lokomotīves iela,56.90799,24.20377
0249,Lokomotīves iela,56.90786,24.20378
0504,Mūzikas skola,56.91508,24.19026
0502,Mūzikas skola,56.91559,24.18970
0402,Rušonu iela,56.91646,24.18842
0403,Rušonu iela,56.91769,24.18695
0425,Šķirotavas stacija,56.90260,24.21408
0426,Šķirotavas stacija,56.90313,24.21333
0035,Lauvas iela,56.93810,24.15677
0381,Rēznas iela,56.93463,24.16147
0382,Rēznas iela,56.93559,24.16022
0158,Ilūkstes iela,56.93197,24.19692
0160,Ilūkstes iela,56.93170,24.19401
0042,Jukuma Vācieša iela,56.93163,24.21169
0043,Jukuma Vācieša iela,56.93158,24.20996
0359,Katlakalna iela,56.93173,24.20181
0360,Katlakalna iela,56.93203,24.19866
0251,Lubānas iela,56.93201,24.18149
0250,Lubānas iela,56.93293,24.16700
1499,Lubānas iela,56.93145,24.18291
7978,Pļavnieku kapi,56.93494,24.22073
0288,Rembates iela,56.93896,24.23030
0289,Rembates iela,56.93923,24.23163
0046,Slāvu rotācijas aplis,56.93110,24.18439
0358,Žīguru iela,56.93696,24.22481
0366,Katoļu iela,56.94058,24.13664
0276,Mazā Kalna iela,56.94078,24.14817
0511,Viļānu iela,56.94094,24.15344
0070,Celmu iela,56.97479,24.23299
0071,Celmu iela,56.97479,24.23256
0430,Ezerkrastu vidusskola,56.97561,24.25291
0427,Ezerkrastu vidusskola,56.97577,24.25352
0150,Hipokrāta iela,56.97372,24.24088
0260,Malienas iela,56.97385,24.24022
0343,"Sociālās aprūpes centrs ""Mežciems""",56.97504,24.22674
0341,"Sociālās aprūpes centrs ""Mežciems""",56.97505,24.22615
2115,"A/S ""Dzintars""",56.90600,24.11154
2113,Staburaga iela,56.90750,24.10908
2116,Staburaga iela,56.90806,24.10856
0264,Mangaļu prospekts,57.07113,24.09526
0265,Mangaļu prospekts,57.07088,24.09574
0076,Stacijas laukums,56.94779,24.12012
1028,Stacijas laukums,56.94764,24.11885
5350,Saules aleja,56.93023,24.07438
5351,Saules aleja,56.92960,24.07491
1370,Tukuma iela,56.93293,24.07164
1371,Tukuma iela,56.93322,24.07136
1391,"Bērnudārzs ""Lienīte""",56.90016,24.04710
1393,"Bērnudārzs ""Lienīte""",56.89831,24.04633
1392,Mārupe,56.89567,24.04605
0478,Aglonas iela,56.91205,24.17730
0477,Aglonas iela,56.91277,24.17724
0018,Apskates stacija,56.88865,24.22999
0019,Apskates stacija,56.88846,24.23107
0203,Dienvidu tilts,56.92144,24.17132
0204,Dienvidu tilts,56.92145,24.17049
0230,Eglaines iela/Dole,56.90503,24.19140
0229,Eglaines iela/Dole,56.90472,24.19117
0202,Ikšķiles iela,56.90037,24.20276
0201,Ikšķiles iela,56.89931,24.20456
0223,Krustpils iela,56.89211,24.22177
0224,Krustpils iela,56.89184,24.22305
0198,Ķengaraga iela,56.91887,24.17329
0197,Ķengaraga iela,56.91763,24.17343
0261,Malnavas iela,56.90766,24.18506
0262,Malnavas iela,56.90874,24.18352
0001,Maskavas iela 450,56.88659,24.23493
0002,Maskavas iela 450,56.88684,24.23493
0326,Pagrieziens uz Dārziņiem,56.87081,24.27247
0325,Pagrieziens uz Dārziņiem,56.87091,24.27284
0370,Prūšu iela,56.91422,24.17554
0369,Prūšu iela,56.91452,24.17597
0376,Rasas iela,56.90180,24.19860
0377,Rasas iela,56.90280,24.19686
0397,Rumbula,56.88286,24.24487
0396,Rumbula,56.88161,24.24677
0398,Rumbula,56.88159,24.24504
0401,Rušonu iela,56.91067,24.17951
0404,Rušonu iela,56.90982,24.17997
0481,Tīrumi,56.87565,24.26095
0480,Tīrumi,56.87591,24.26094
0513,Višķu iela,56.89627,24.21180
0515,Višķu iela,56.89632,24.21241
5462,A.Čaka iela,56.95568,24.13640
5466,Avotu iela,56.95237,24.14323
5461,Krāsotāju iela,56.95343,24.14121
5459,Matīsa iela,56.94780,24.15331
5465,Matīsa iela,56.95524,24.13709
5468,Pērnavas iela,56.94789,24.15291
5460,Valmieras iela,56.95056,24.14733
5467,Valmieras iela,56.95006,24.14819
0730,Matrožu iela,56.96335,24.07984
0525,Mazā Juglas  iela,56.97214,24.26302
0526,Mazā Juglas  iela,56.97238,24.26228
0138,Zvēraudzētava,56.97041,24.27056
1372,Kokles iela,56.93362,24.07735
1373,Kokles iela,56.93363,24.07756
5429,Jaunmārupes sākumskola,56.88014,23.94590
4999,Mūzikas un mākslas skola,56.88204,23.93479
5512,Pļavu iela,56.88233,23.94202
5511,Pļavu iela,56.88225,23.94202
5513,Siltumnīcu komplekss,56.87946,23.92780
0093,Dārzeņu bāze,56.93011,24.21178
0497,Rencēnu iela,56.92275,24.21275
0496,Rencēnu iela,56.92304,24.21290
1116,Āgenskalna iela,56.94670,24.06238
1115,Ļermontova iela,56.94052,24.07028
7974,Ļermontova iela,56.94074,24.06982
1238,Melnsila iela,56.94464,24.06539
1549,Babītes stacija,56.95820,23.95419
0284,Mēness iela,56.96864,24.13660
0059,Brīvības bulvāris,56.95175,24.11617
0167,Inženieru iela,56.95122,24.11682
1033b,Merķeļa iela,56.94945,24.11884
1033a,Merķeļa iela,56.94859,24.11984
2119,Merķeļa iela,56.94908,24.11928
0048,Bergenas iela,57.00226,24.15182
0049,Bergenas iela,57.00243,24.15220
0132,Ezermalas iela,57.00685,24.16420
0164,Inčukalna iela,56.99706,24.14149
0292,Mežaparks,57.00437,24.15543
0291,Mežaparks,57.00487,24.15652
0417,Sarkandaugava,56.99578,24.13189
0189,Sarkandaugavas kapi,56.99691,24.13919
0448,Stendera iela,56.99927,24.14646
0449,Stendera iela,56.99881,24.14571
0105,Druvienas iela,56.97127,24.22987
7983,Hipokrāta iela,56.97302,24.24041
7982,Līduma iela,56.97219,24.23434
1156,Līduma iela,56.97205,24.23318
7999,Brasas stacija,56.97582,24.14434
0127,Ēveles iela,56.96873,24.13563
8000,Kazarmu iela,56.97320,24.14186
0238,Lēdurgas iela,57.01799,24.13049
0314,Ostas iela,57.02182,24.13475
0313,Ostas iela,57.02171,24.13412
1255,Bieķensalas iela,56.92829,24.10720
9104,Bieķensalas iela,56.92641,24.10656
1257,Kīleveina grāvis,56.93796,24.10174
1260,Kīleveina grāvis,56.93715,24.10228
1256,Laivu iela,56.93132,24.10707
1261,Laivu iela,56.93141,24.10684
2052,Mūkusala,56.93470,24.10505
2053,Mūkusala,56.93350,24.10558
1258,Nacionālā bibliotēka,56.94119,24.09879
1259,Nacionālā bibliotēka,56.94159,24.09810
0179,Jugla,56.97765,24.25472
0170,Jugla,56.97801,24.25489
0232,Kvēles iela,56.98042,24.24459
0231,Kvēles iela,56.98077,24.24378
0303,Murjāņu iela,56.97882,24.25009
0302,Murjāņu iela,56.97900,24.24919
2059,Dzelzavas iela,56.95825,24.17694
2062,Dzelzavas iela,56.95900,24.17742
0307,Nīcgales iela,56.95016,24.17311
2060,Purvciems,56.95477,24.17535
2061,Purvciems,56.95558,24.17591
1497,Vietalvas iela,56.94544,24.17202
1498,Vietalvas iela,56.94501,24.17249
1114,Āgenskalna tirgus,56.93585,24.07098
1240,Āgenskalna tirgus,56.93584,24.07089
1239,Nometņu iela,56.93810,24.07216
5021,Arkādijas parks,56.93145,24.08212
5022,Arkādijas parks,56.93155,24.08230
1364,Torņakalna iela,56.92816,24.08062
1365,Torņakalna iela,56.92849,24.08079
8041,Īslīces iela,56.89837,24.08609
5333,Mežkalna  iela,56.89881,24.07946
1340,Ozolciema iela,56.89951,24.09832
1342,Ozolciema iela,56.89917,24.09666
1341,Ziepniekkalna D/P,56.90238,24.10252
1341a,Ziepniekkalna D/P,56.90190,24.10270
5517,Alkšņu iela,56.87550,23.94576
5516,Bērzu iela,56.87567,23.93890
5518,Kalngales,56.87556,23.95127
5514,Ziedkalnu iela,56.87823,23.92502
1541,Lidosta Rīga,56.92154,23.97973
1542,Lidosta Rīga,56.92115,23.98114
1540,Priežkalni,56.92306,23.99648
1543,Priežkalni,56.92306,23.99722
1539,Rūdas,56.92673,24.00215
1544,Rūdas,56.92678,24.00283
1521,Amatnieki,56.96981,24.33987
1522,Amatnieki,56.96852,24.33862
1523,Upeskalni,56.96526,24.33035
1524,Upeskalni,56.96512,24.32961
5101a,Dreiliņu pasts,56.94365,24.24481
9097,Dreiliņu pasts,56.94337,24.24604
5102,Dreiliņu veikals,56.94342,24.25082
5103,Dreiliņu veikals,56.94351,24.25041
5199,Liepziedi,56.94329,24.25756
5200,Liepziedi,56.94338,24.25646
5320,Radiocentrs,56.94288,24.27131
5321,Radiocentrs,56.94309,24.26747
1162,Daugavgrīvas D/P,57.03581,24.01737
1159,Plēksnes iela,57.04066,24.02915
1182,Plēksnes iela,57.04110,24.03036
1161,Valentīna Pikuļa aleja,57.03642,24.01976
1180,Valentīna Pikuļa aleja,57.03688,24.02103
1160,Zvīņu iela,57.03849,24.02439
1181,Zvīņu iela,57.03929,24.02642
5292,A.Čaka iela,56.96317,24.15087
5293,A.Čaka iela,56.96319,24.15107
0064,Brīvības iela,56.96582,24.14866
2025,Daugavas stadions,56.95312,24.15392
5145,Grīziņkalns,56.95594,24.15296
5144,Grīziņkalns,56.95708,24.15287
0344,Pērnavas iela,56.96601,24.14827
8025,Vārnu iela,56.95926,24.15202
2079,Vārnu iela,56.96027,24.15191
0257,Piedrujas iela,56.93965,24.17286
5454,Piedrujas iela,56.93991,24.17406
0351,Pildas iela,56.94189,24.18063
2036,Paula Stradiņa slimnīca,56.93203,24.06957
2083,Bultu iela,56.90999,24.19486
2089,Bultu iela,56.90904,24.19607
2091,Ikšķiles iela,56.90425,24.20854
2084,Malnavas iela,56.91253,24.19111
2088,Malnavas iela,56.91153,24.19252
2082,Plostu iela,56.90675,24.20026
2090,Plostu iela,56.90627,24.20143
2081,Prūšu iela,56.90459,24.20812
2087,Rušonu iela,56.91439,24.18579
0115,Dzirnavu iela,56.96245,24.10607
0116,Hanzas iela,56.96180,24.10579
5472,Pētersalas iela,56.96764,24.10632
2013,Pētersalas iela,56.96764,24.10648
0060,Brīvības bulvāris,56.95215,24.11314
0075,Centrālā stacija,56.94847,24.11772
7980,Centrālā stacija,56.94758,24.11834
2017,Centrālā stacija,56.94755,24.11816
0168,Inženieru iela,56.95090,24.11490
0373,Raiņa bulvāris,56.95393,24.10927
1244,Kalnciema iela,56.94567,24.08363
1104,Uzvaras bulvāris,56.94031,24.09141
0626,Kleisti,56.98686,24.01407
0626a,Kleisti,56.98702,24.01420
0625,Mikrobioloģijas institūts,56.98505,24.02564
0627,Mikrobioloģijas institūts,56.98496,24.02532
0624,Pagrieziens uz Kleistiem,56.98376,24.03169
0368,Preču - 2,56.92254,24.21701
5428,Jaunmārupes sākumskola,56.87973,23.94608
5177,Ķienes,56.87880,23.95780
5176,Ķienes,56.87895,23.95854
5311,Puķulejas,56.88643,23.98805
5310,Puķulejas,56.88731,23.99217
5330,Riekstiņi,56.88150,23.96771
5329,Riekstiņi,56.88163,23.96840
4848,Vētras,56.88323,23.97453
8083,Vētras,56.88405,23.97839
5439,Vizmas,56.88991,24.00277
1310,Baloži,56.87627,24.12243
1314,Baloži,56.87653,24.12323
1312,Kantoris,56.87066,24.11062
5273,Pagrieziens uz Piņķiem,56.94580,23.91993
4977,Piņķi,56.94428,23.91045
8073,Piņķi,56.94433,23.91042
1311,Skola,56.87489,24.11868
1313,Skola,56.87480,24.11870
1404,Robežu iela,56.92287,24.07576
1434,Anniņmuižas iela,56.94926,24.01440
1436,Anniņmuižas iela,56.94938,24.01264
1439,Rostokas iela,56.94956,24.00122
1437,Rostokas iela 16,56.94952,24.00598
1438,Rostokas iela 16,56.94945,24.00653
1435,Zolitūdes D/P,56.94830,24.02382
1440,Zolitūdes iela,56.94966,23.99980
1426,Rucavas iela,56.93912,24.03131
9106,Rusova iela/Valsts ieņēmumu dienests,56.98903,24.16680
2085,Rušonu iela,56.91527,24.18553
0298,Motormuzejs,56.97034,24.23003
0297,Motormuzejs,56.97025,24.22997
0408,S.Eizenšteina iela,56.96146,24.23215
0439,"Sporta bāze ""Biķernieki""",56.96611,24.23348
0171,Jāņavārti,56.91991,24.18388
0172,Jāņavārti,56.92065,24.18309
0199,Ķengarags,56.92158,24.18173
0412,Salaspils iela,56.93227,24.16893
0432,Slāvu iela,56.92768,24.17401
0431,Slāvu iela,56.92757,24.17437
1254,Lucavsala,56.92935,24.11422
1333,Lucavsala,56.92919,24.11457
5348,Salu tilts,56.92677,24.11105
1253,Zaķusala,56.93257,24.11941
1334,Zaķusala,56.93258,24.12003
0077,Centrālā stacija,56.94812,24.12153
0074,Elizabetes iela,56.94812,24.12347
0146,Ģertrūdes iela,56.94703,24.13994
2105,Graudu iela,56.91123,24.10405
2103,Kartupeļu iela,56.91384,24.09958
2111,Kartupeļu iela,56.91436,24.09879
2102,Saulkalnes iela,56.91491,24.09780
2110,Saulkalnes iela,56.91207,24.10290
1383,Brūkleņu iela,56.91347,24.05057
1384,Kurmenes iela,56.91315,24.05482
1386,Kursīšu iela,56.91266,24.05894
9102,Miera iela,56.97037,24.13917
9103,Miera iela,56.97024,24.13915
5457,93.vidusskola,56.94589,24.19071
1502,Gaismas iela,56.94553,24.18196
1500,Skaņu iela,56.94486,24.17612
1501,Skaņu iela,56.94496,24.17634
1601,Malēju iela,56.90736,24.22091
1706,Sila iela,56.90659,24.21545
0061,Brīvības gatve,56.98856,24.23747
0424,Silciema iela,56.98832,24.23743
0505,Slēpotāju iela,56.98553,24.23903
0506,Slēpotāju iela,56.98469,24.23924
1184,Platā iela,57.02853,24.04446
1185,Platā iela,57.02848,24.04471
1187,Silikātu iela,57.02790,24.03422
1186,Silikātu iela,57.02809,24.03392
1037,Arēna Rīga,56.96948,24.11946
1038,Arēna Rīga,56.96947,24.11887
0438,Šoseja,56.98595,24.32132
0437,Šoseja,56.98588,24.32147
5368,Silkalēji,56.92017,23.94418
5369,Silkalēji,56.92031,23.94257
5000,Skulte,56.91937,23.95258
8078,Skulte,56.91932,23.95358
1703,Skultes stadions,56.91982,23.94780
1704,Skultes stadions,56.91993,23.94754
1105,A.Grīna bulvāris,56.94209,24.08187
1109,A.Grīna bulvāris,56.94199,24.08190
1041,Baldones iela,56.95076,24.06607
1091,Baldones iela,56.95066,24.06581
1093,Kalnciema iela,56.94601,24.07392
1107,Kalnciema iela,56.94525,24.07477
1040,Mārtiņa iela,56.94816,24.07258
1092,Mārtiņa iela,56.94848,24.07212
1106,Nometņu iela,56.94301,24.07816
1108,Nometņu iela,56.94353,24.07679
0618,Observatorijas iela,56.96187,24.03932
0634,Observatorijas iela,56.96177,24.03934
0617,Saulgožu iela,56.96132,24.04769
0635,Saulgožu iela,56.96121,24.04849
1110,Uzvaras bulvāris,56.93987,24.09070
1219,Skodas iela,56.97104,24.04999
1210,Skodas iela,56.97117,24.05056
1218,Spilves iela 16,56.97192,24.05216
1211,Spilves iela 16,56.97202,24.05267
1492,A.Čaka iela,56.95458,24.13199
0037,Avotu iela,56.95193,24.13739
0440,Stabu iela,56.95213,24.13720
1491,Stabu iela,56.95774,24.12539
0324,Paegles,57.06144,24.08000
0323,Paegles,57.06159,24.07997
7993,Stāvvadu iela,57.07016,24.08866
7994,Stāvvadu iela,57.07026,24.08886
5076,Čiekuri,56.89163,23.98682
5075,Čiekuri,56.89221,23.98654
4996,Milži,56.90446,23.99476
8064,Milži,56.90478,23.99534
5236,Noras,56.91015,24.00243
5235,Noras,56.91101,24.00379
5389,Stīpnieki,56.91495,24.00910
5390,Stīpnieki,56.91641,24.01158
5447,Zirnīši,56.89784,23.98560
5448,Zirnīši,56.89824,23.98634
2058,64.vidusskola,56.95901,24.18499
2065,64.vidusskola,56.96023,24.18720
2057,Ainavas iela,56.96184,24.19071
2066,Ainavas iela,56.96240,24.19213
2080,Ieriķu iela,56.96507,24.19535
2125,Ieriķu iela,56.96463,24.19485
1152,Bolderājas tirgus,57.03285,24.04821
1425,Rucavas iela,56.93929,24.03054
0062,Brīvības gatve,56.98450,24.20930
0434,"Slimnīca ""Šmerlis""",56.98044,24.21246
0433,"Slimnīca ""Šmerlis""",56.98094,24.21201
1336,Bērzupes iela,56.91611,24.09186
1337,Bērzupes iela,56.91594,24.09293
0503,Ābeļu iela,56.86769,24.27077
0507,Ābeļu iela,56.86769,24.27092
0095,Jāņogu iela,56.86281,24.26882
0530,Sakņu iela,56.86496,24.26972
0531,Sakņu iela,56.86480,24.26949
2096,Bajāru iela,56.97276,24.17987
2097,Biķernieku iela,56.97102,24.17901
2095,Tālivalža iela,56.97514,24.18247
2098,Zalkšu iela,56.97324,24.18052
2028,A.Čaka iela,56.95928,24.14342
2041,A.Čaka iela,56.95885,24.14399
0065,Brīvības iela,56.96360,24.13618
2030,Brīvības iela,56.96260,24.13789
2026,J.Asara iela,56.95445,24.15138
2043,J.Asara iela,56.95562,24.15011
2029,K.Barona iela,56.96060,24.14112
2040,K.Barona iela,56.96118,24.14002
2042,Krāsotāju iela,56.95713,24.14728
2031,Miera iela,56.96523,24.13381
2027,Vārnu iela,56.95787,24.14608
2001,Blaumaņa iela,56.95428,24.12250
2012,Brīvības bulvāris,56.95263,24.11596
2011,Lāčplēša iela,56.95480,24.12338
2000,Tērbatas iela,56.95257,24.11619
5023,Ārlavas iela,56.92304,24.07912
5024,Ārlavas iela,56.92335,24.07935
5060,Bramberģes iela,56.91489,24.06995
5061,Bramberģes iela,56.91409,24.06847
5134,Ģimnastikas iela,56.91939,24.07553
1401,Ģimnastikas iela,56.91873,24.07475
5359,Sējas iela,56.91238,24.06609
5360,Sējas iela,56.91205,24.06540
1399,Vecmoku iela,56.91706,24.07314
1400,Vecmoku iela,56.91709,24.07340
0415,Sarkandaugava,56.99419,24.12494
0416,Sarkandaugava,56.99487,24.12679
7975,Sarkandaugava,56.99569,24.12903
0016,Aizvēja,57.05356,24.06251
0017,Aizvēja,57.05276,24.06310
0263,Mangaļsala,57.06101,24.05520
0311,Osta,57.05577,24.06070
0312,Osta,57.05548,24.06069
2074,Dzirnavu iela,56.94578,24.12507
2073,Turgeņeva iela,56.94577,24.12497
0024,Aptiekas iela,56.99841,24.11713
0023,Aptiekas iela,56.99943,24.11796
0266,MAN - TESS,57.00581,24.12004
0384,Psihiatrijas un narkoloģijas centrs,56.99401,24.12076
0383,Psihiatrijas un narkoloģijas centrs,56.99378,24.12071
0278,Tvaika iela 4,56.99613,24.11825
0277,Tvaika iela 4,56.99640,24.11780
9092,Latvenergo,56.95318,24.22166
9093,Latvenergo,56.95313,24.22138
0413,Salnas iela,56.94431,24.21736
0414,Salnas iela,56.94324,24.21675
0488,Ulbrokas iela,56.93893,24.21521
0487,Ulbrokas iela,56.93867,24.21490
0353,Madaru iela,56.98750,24.30409
0354,Madaru iela,56.98735,24.30429
0462,Tadenavas iela,56.98863,24.29896
0461,Tadenavas iela,56.98862,24.29844
0334,Upesciema iela,56.99053,24.29151
0335,Upesciema iela,56.99057,24.29169
1382,Upesgrīvas iela,56.91975,24.04148
8082,Upesgrīvas iela,56.91948,24.04120
5185,Nacionālā bibliotēka,56.94244,24.09702
5186,Nacionālā bibliotēka,56.94183,24.09516
1111,Slokas iela,56.93877,24.08958
1243,Slokas iela,56.93934,24.09082
0491,Ūnijas iela,56.96430,24.17686
0499,Vaidavas iela,56.96208,24.17614
2126,Vaidavas iela,56.96165,24.17604
1335,K.Ulmaņa gatve,56.91884,24.09253
1360,Vaiņodes iela,56.91827,24.09213
1339,94.vidusskola,56.89907,24.09220
1343,94.vidusskola,56.90021,24.09268
2107,Ēbelmuižas iela,56.90439,24.09380
1345,Graudu iela,56.90981,24.09553
1346,Graudu iela,56.90828,24.09508
1338,Spulgas iela,56.90201,24.09324
1344,Spulgas iela,56.90346,24.09375
1271,Tadaiķu iela,56.91570,24.09710
1270,Valdeķu iela,56.91453,24.09657
1338a,Ziepniekkalns,56.90231,24.09350
2117,Valguma iela,56.94057,24.09621
0274,Matīsa iela,56.95107,24.14932
0271,Matīsa iela,56.95067,24.14837
0330,Pagrieziens uz Mangaļiem,57.07066,24.10501
0304,Skanstnieki,57.05536,24.10439
0305,Skanstnieki,57.05585,24.10439
0444,"Stacija ""Vecdaugava""",57.05941,24.10600
0442,"Stacija ""Vecdaugava""",57.05902,24.10564
0331,Vecāķu prospekts,57.07029,24.10484
0523,Zvejas iela,57.06368,24.10613
0524,Zvejas iela,57.06418,24.10585
1606,Veiksmes iela,57.05612,24.07261
1607,Veiksmes iela,57.05640,24.07280
1409,Astras iela,56.93162,24.05150
1410,Astras iela,56.93162,24.05095
1411,Jaunmoku iela,56.93415,24.04481
1412,Jaunmoku iela,56.93364,24.04570
7981,7.autobusu parks,56.94023,24.16586
0392,"RP SIA ""Rīgas satiksme""",56.94365,24.16486
0452,Stopiņu iela,56.94955,24.16324
0451,Stopiņu iela,56.94982,24.16333
0510,Vietalvas iela,56.94652,24.16471
0509,Vietalvas iela,56.94654,24.16408
1351,Ābolu iela,56.90626,24.08330
1352,Ābolu iela,56.90449,24.08187
1354,Graudu iela,56.90951,24.08536
1353,Graudu iela,56.91048,24.08617
1355,Ģimnastikas iela,56.91706,24.08799
1356,Ģimnastikas iela,56.91580,24.08748
2048,Irbenes iela,56.91395,24.08724
2049,Irbenes iela,56.91347,24.08685
5331,Robežu iela/Bērnu slimnīca,56.91925,24.08836
1357,Robežu iela/Bērnu slimnīca,56.92055,24.08885
1362,Satiksmes iela,56.92713,24.09038
1363,Satiksmes iela,56.92709,24.09051
5334,Vienības gatve,56.89966,24.07872
0239,Lēdurgas iela,57.01913,24.13209
7996,"Muzejs ""Dauderi""",57.00337,24.12984
0365,"Muzejs ""Dauderi""",57.00519,24.12891
0051,Viestura prospekts,57.00004,24.13192
0050,Viestura prospekts,56.99909,24.13215
0217,Viestura prospekts 97,57.00906,24.12891
0216,Viestura prospekts 97,57.00957,24.12932
5452,Matīsa kapi,56.94707,24.15960
5453,Matīsa kapi,56.94731,24.15758
5458,Sergeja Žoltoka vidusskola,56.94470,24.16981
1117,Kuldīgas iela,56.94834,24.05796
1237,Kuldīgas iela,56.94762,24.05979
0471,TEC-1,56.98970,24.18669
0472,TEC-1,56.98959,24.18679
0512,Viskaļu iela,56.98587,24.18474
0299,Višķu iela 3,56.89776,24.21248
0300,Višķu iela/trol. galapunkts,56.90014,24.21653
8072,Daugavgrīvas šoseja,56.98925,24.08288
1136,Voleri,57.00378,24.08711
1137,Voleru iela 35,56.99806,24.08685
1138,Voleru iela 35,56.99760,24.08668
1139,Voleru iela 5,56.99354,24.08605
1418,Apuzes iela,56.93388,24.02851
1415,Candera iela,56.93937,24.04523
1416,Irlavas iela,56.93777,24.04016
1419,Pleskodāles iela,56.93189,24.02486
1417,Rucavas iela,56.93628,24.03545
1420,Zolitūdes iela,56.92961,24.02001
2124,Televīzijas centrs,56.93483,24.11766
0647,Zasulauka iela,56.94249,24.04093
0648,Zasulauka iela,56.94267,24.04060
1073,96.vidusskola,56.95948,24.00500
1076,96.vidusskola,56.95896,24.00681
1074,Vīksnes iela,56.96055,24.00051
1075,Vīksnes iela,56.96014,24.00183
5279,Priežciems,56.95071,23.93612
1554,Latvijas Pasts,56.92767,23.98697
1326,Kalētu iela,56.90703,24.12848
1329,Kalētu iela,56.90661,24.12836
1323,Krustkalni,56.89555,24.14101
1332,Krustkalni,56.89430,24.14217
1324,Neilandi,56.89803,24.13773
1331,Neilandi,56.89777,24.13765
1330,Priekules iela,56.90427,24.13025
1327,Šautuves iela,56.91196,24.12458
1328,Šautuves iela,56.91223,24.12403
1443,Gramzdas iela,56.94344,24.00347
1446,Gramzdas iela,56.94414,24.00309
1442,Mežmalas iela,56.94607,24.00143
1447,Mežmalas iela,56.94751,24.00049
1441,Rostokas iela,56.94889,23.99929
1448,Rostokas iela,56.94915,23.99924
3254,Aspazijas bulvāris - pagaidu,56.94833,24.11540
7749g,Abrenes iela,56.94599,24.12864
1561,Āgenskalna priedes,56.94454,24.05899
0007,Alfa,56.98381,24.20224
1801,Mārkalnes iela,56.98809,24.22881
1803,Meža skola,56.98637,24.21404
1804,Sporta akadēmija,56.98582,24.20966
1802,Tirzas iela,56.98735,24.22240
1559,"Dzelzceļa stacija ""Turība""",56.91229,24.07551
1560,"Dzelzceļa stacija ""Turība""",56.91209,24.07645
1562,Dreiliņu iela,56.94183,24.06034
4160,Basu iela,56.90821,24.09404
4161,Basu iela,56.90830,24.09413
7013,Graudu iela,56.90966,24.08708
7014,Graudu iela,56.91055,24.08416
7015,Ķekavas iela,56.91357,24.11014
7016,Ķekavas iela,56.91410,24.11165
5928,Brīvības gatve,56.97400,24.16550
5929,Brīvības gatve,56.97191,24.16658
1809,Ģipša iela,56.95912,24.08248
5927,Ieriķu iela,56.96573,24.17203
5406a,Ulbroka,56.94020,24.29237
1816,Lejupes iela,56.91095,24.14757
1817,Lejupes iela,56.91115,24.14908
9115,2.trolejbusu parks,56.93200,24.09908
9113,LU Akadēmiskais  centrs,56.93623,24.09803
9114,LU Akadēmiskais  centrs,56.93650,24.09811
0281,Viļānu iela,56.94271,24.15169
5590,Gramzdas iela,56.94030,23.99980
5591,Gramzdas iela,56.93984,23.99910
7012,Anniņmuižas ģimnāzija,56.96122,24.02205
10622,Imantas D/P,56.96045,23.99724
1807,Kaiju iela,56.95650,24.08096
1808,Kaiju iela,56.95698,24.08091
1805,Rīgas Tehniskā universitāte,56.95233,24.08401
1806,Rīgas Tehniskā universitāte,56.95247,24.08370
1395,Mārupe,56.89518,24.04591
0420,Meža prospekts,56.99611,24.13239
5593,Noliktavu iela,56.93275,24.23609
1810,Ģipša iela,56.95936,24.08248
5926,Īslīces iela,56.89851,24.08235
0732,Kalnciema iela,56.94507,24.08360
1435a,Zolitūdes D/P,56.94823,24.02459
1812,Sporta iela,56.96480,24.11557
1813,Sporta iela,56.96466,24.11527
1047,Upes iela,56.97590,24.13379
1048,Upes iela,56.97575,24.13437
5312,Puķulejas,56.88754,23.99002
9109,Aldaris,57.00470,24.11948
1396,"Bērnudārzs ""Zeltrīti""",56.89005,24.04958
1397,"Bērnudārzs ""Zeltrīti""",56.88987,24.05070
1398,Veczariņu iela,56.88950,24.05766
1394,Veczariņu iela,56.88968,24.05636
1555,Miglas iela,56.92599,23.99243
3015,A.Grīna bulvāris,56.94141,24.08265
3006,Slokas iela,56.94167,24.08285
3005,E.Smiļģa iela,56.93662,24.07592
3016,E.Smiļģa iela,56.93674,24.07712
3004,Āgenskalna tirgus,56.93558,24.07082
3017,Āgenskalna tirgus,56.93564,24.07014
3002,Ormaņu iela,56.93718,24.05967
3019,Ormaņu iela,56.93739,24.05919
3003,Pārslas iela,56.93668,24.06296
3018,Pārslas iela,56.93674,24.06268
3196,Arkādijas parks,56.93295,24.08390
3199,Arkādijas parks,56.93280,24.08341
3042,A.Grīna bulvāris,56.94202,24.08228
3043,A.Grīna bulvāris,56.94196,24.08258
3040,Kalnciema iela,56.94598,24.07403
3045,Kalnciema iela,56.94547,24.07447
3039,Mārtiņa iela,56.94851,24.07216
3046,Mārtiņa iela,56.94821,24.07244
3041,Nometņu iela,56.94341,24.07707
3044,Nometņu iela,56.94298,24.07812
3014,Slokas iela,56.94011,24.09027
3007,Uzvaras bulvāris,56.93998,24.09079
3008,Nacionālā bibliotēka,56.94132,24.09441
3013,Nacionālā bibliotēka,56.94156,24.09498
3197,Slokas iela,56.93962,24.09116
3198,Slokas iela,56.93915,24.09031
1315,Meža iela,56.88112,24.13859
1309,Meža iela,56.88121,24.13853
3185,Bišumuiža,56.91458,24.14072
3186,Doles iela,56.91589,24.13438
3210,Doles iela,56.91580,24.13235
3209,Mazā Bauskas iela,56.91570,24.12389
1612,Ādažu iela,57.01317,24.25966
9094,Ādažu iela,57.01410,24.25956
3100,13.janvāra iela,56.94576,24.11321
3061,Nacionālā opera,56.94863,24.11399
3099,Nacionālā opera,56.94836,24.11414
3166,Ausekļa iela,56.95884,24.10004
3011,Centrāltirgus,56.94411,24.11433
3065,Pētersalas iela,56.96826,24.09791
3064,Vašingtona laukums,56.96193,24.09836
3096,Vašingtona laukums,56.96259,24.09830
3242,Aspazijas bulvāris,56.94809,24.11489
3122,Bērnu pasaule,56.95730,24.13350
3130,Bērnu pasaule,56.95672,24.13238
3134,Brīvības iela,56.96804,24.15100
3124,Dzirnavu iela,56.95215,24.12310
3128,Dzirnavu iela,56.95237,24.12357
3123,Ģertrūdes iela,56.95459,24.12803
3129,Ģertrūdes iela,56.95441,24.12772
3118,K.Barona iela,56.96758,24.15066
3125,Merķeļa iela,56.94995,24.11866
3127,Merķeļa iela,56.95037,24.11955
3119,Pērnavas iela,56.96559,24.14934
3133,Pērnavas iela,56.96499,24.14873
3120,"Sporta nams ""Daugava""",56.96280,24.14438
3132,"Sporta nams ""Daugava""",56.96258,24.14398
3121,Tallinas iela,56.96098,24.14075
3131,Tallinas iela,56.96079,24.14045
3063,Ausekļa iela,56.95742,24.10083
3097,Kronvalda bulvāris,56.95771,24.10053
3062,Nacionālais teātris,56.95375,24.10419
3098,Nacionālais teātris,56.95327,24.10458
3226,Bērnu pasaule,56.95727,24.13291
3227,Brīvības iela,56.95951,24.12900
3220,Brasas stacija,56.97579,24.14444
3232,Brasas stacija,56.97615,24.14488
3225,Brīvības iela,56.96016,24.12915
3222,Ēveles iela,56.96875,24.13556
3221,Kazarmu iela,56.97320,24.14189
3231,Kazarmu iela,56.97304,24.14180
3224,Laima,56.96356,24.13188
3228,Laima,56.96338,24.13173
3230,Mēness iela,56.96898,24.13594
3223,Tallinas iela,56.96605,24.13359
3229,Tallinas iela,56.96525,24.13313
3095,Eksporta iela,56.96853,24.09827
3066,Katrīnas iela,56.96819,24.10072
3094,Katrīnas iela,56.96809,24.10150
3165,Prāgas iela,56.94540,24.11527
3245,Radio iela,56.94834,24.11592
3126,Stacijas laukums,56.94765,24.11636
3218,2.Meža kapi,56.98429,24.15566
3234,2.Meža kapi,56.98431,24.15569
3219,Brāļu kapi,56.98258,24.15073
3233,Brāļu kapi,56.98274,24.15121
3217,Gaujas iela,56.98646,24.16046
3235,Gaujas iela,56.98594,24.15971
3216,Rusova iela/Valsts ieņēmumu dienests,56.98953,24.16465
3236,Rusova iela/Valsts ieņēmumu dienests,56.98979,24.16483
3058,Slokas iela,56.96052,24.06023
3037,Botāniskais dārzs,56.95127,24.05369
3048,Botāniskais dārzs,56.95122,24.05279
3038,Baldones iela,56.95066,24.06659
3047,Baldones iela,56.95076,24.06559
3060,Dārza iela,56.95342,24.06280
3101,Dārza iela,56.95313,24.06285
3059,Eiženijas iela,56.95664,24.06248
3057,Buļļu iela,56.96326,24.06178
3104,Buļļu iela,56.96290,24.06137
3056,Bēnes iela,56.96488,24.06450
3055,Iļģuciems,56.96499,24.06939
3105,Lilijas iela,56.96475,24.06360
3102,Eiženijas iela,56.95724,24.06199
3103,Saldus iela,56.95926,24.06019
3033,Kleistu iela,56.95985,24.02042
3052,Kleistu iela,56.95998,24.02001
3034,Imantas iela,56.95758,24.02675
3051,Imantas iela,56.95760,24.02623
3032,Anniņmuižas bulvāris,56.96094,24.01415
3053,Dammes iela,56.96107,24.01401
3031,Imanta,56.96624,24.00808
3054,Imanta,56.96579,24.00886
3050,Bebru iela,56.95687,24.03487
3036,Jūrmalas gatve,56.95252,24.03480
3035,Kurzemes prospekts,56.95661,24.03475
3049,Kurzemes prospekts,56.95278,24.03502
3025,Jaunsaules iela,56.95512,24.04559
3027,Jaunsaules iela,56.95483,24.04556
3024,Jūrmalas gatve,56.95106,24.04605
3028,Jūrmalas gatve,56.95199,24.04580
3026,Tapešu iela,56.95768,24.04643
5217,Mežciems,56.89277,24.01394
5216,Mežciems,56.89291,24.01497
5515,Pīlādžu iela,56.87674,23.93001
3080,Mīlgrāvis,57.01711,24.12302
3078,Gaujienas iela,57.00624,24.12518
3082,Gaujienas iela,57.00634,24.12516
3079,Tvaika iela,57.00981,24.12534
3081,Tvaika iela,57.01000,24.12517
3106,Jugla,56.98973,24.24057
3146,Jugla,56.98977,24.24152
3107,Mārkalnes iela,56.98801,24.22874
3145,Mārkalnes iela,56.98806,24.22943
3108,Tirzas iela,56.98723,24.22210
3144,Tirzas iela,56.98728,24.22280
3156,"Atpūtas centrs ""Lido""",56.92989,24.16335
3176,"Atpūtas centrs ""Lido""",56.92971,24.16346
3155,Krasta masīvs,56.92538,24.16831
3177,Krasta masīvs,56.92518,24.16841
1320,Dārziņi,56.89545,24.17241
1321,"Kooperatīvs ""Ziedonis""",56.89787,24.17290
1319,Rāmava,56.89422,24.15227
1322,Rāmava,56.89425,24.15172
3151,Aglonas iela,56.91253,24.17715
3181,Aglonas iela,56.91218,24.17748
3154,Dienvidu tilts,56.92179,24.17080
3178,Dienvidu tilts,56.92151,24.17096
3148,Eglaines iela/Dole,56.90644,24.18803
3184,Eglaines iela/Dole,56.90657,24.18779
3153,Ķengaraga iela,56.91826,24.17338
3179,Ķengaraga iela,56.91809,24.17347
3149,Malnavas iela,56.90853,24.18356
3183,Malnavas iela,56.90821,24.18427
3152,Prūšu iela,56.91475,24.17553
3180,Prūšu iela,56.91509,24.17527
3150,Rušonu iela,56.91013,24.17983
3182,Rušonu iela,56.91030,24.17956
2137,Višķu iela,56.89980,24.21582
0544,Krievupes iela,57.00808,24.32820
0545,Krievupes iela,57.00835,24.32820
5415,Svētes iela,56.90284,24.05119
5414,Svētes iela,56.90157,24.04941
3158,Aiviekstes iela,56.93589,24.15598
3174,Balvu iela,56.93659,24.15472
3164,Centrāltirgus,56.94297,24.11290
3160,Daugavpils iela,56.93870,24.14073
3172,Daugavpils iela,56.93905,24.13982
3162,Elijas iela,56.93990,24.12671
3170,Elijas iela,56.93987,24.12629
3161,Katoļu iela,56.93959,24.13773
3171,Katoļu iela,56.93954,24.13542
3157,Lubānas iela,56.93377,24.15953
3175,Lubānas iela,56.93425,24.15868
3167,Maskavas iela,56.94266,24.11422
3159,Mazā Kalna iela,56.93787,24.14642
3173,Mazā Kalna iela,56.93785,24.14596
3243,No 3.depo,56.93384,24.15880
3163,Turgeņeva iela,56.94173,24.11917
3168,Turgeņeva iela,56.94185,24.11870
3214,Hamburgas iela,56.99743,24.16141
3238,Hamburgas iela,56.99768,24.16127
3240,Mežaparks,57.00469,24.15705
3215,Mirdzas Ķempes iela,56.99370,24.16366
3237,Mirdzas Ķempes iela,56.99352,24.16375
3213,Visbijas prospekts,57.00055,24.15951
3239,Visbijas prospekts,57.00027,24.15974
3211,Ezermalas iela,57.00678,24.16236
3212,Mežaparks,57.00556,24.15748
1154,Mežciema iela,56.97302,24.23941
1158,Biķernieku iela,56.96093,24.23116
3072,1.trolejbusu parks,56.98733,24.12159
3088,1.trolejbusu parks,56.98761,24.12163
3069,Bukultu iela,56.97712,24.11400
3091,Bukultu iela,56.97765,24.11440
3067,Ganību dambis,56.96771,24.10535
3068,Lugažu iela,56.97466,24.11203
3092,Lugažu iela,56.97446,24.11184
3093,Pētersalas iela,56.96782,24.10589
3071,Rāmuļu iela,56.98339,24.11918
3089,Rāmuļu iela,56.98356,24.11929
3070,Rankas iela,56.97968,24.11612
3090,Rankas iela,56.97946,24.11591
3251,Kultūru vidusskola,56.97061,24.10872
3252,Kultūru vidusskola,56.97037,24.10849
8071,Meistaru iela,56.94293,23.90414
0357,Žīguru iela,56.93693,24.22440
3086,Duntes iela,56.99326,24.12306
3073,"Rūpnīca ""RER""",56.99017,24.12219
3087,"Rūpnīca ""RER""",56.99089,24.12210
3077,Aldaris,57.00220,24.12368
3083,Aldaris,57.00221,24.12368
2130,Meža prospekts,56.99604,24.13189
3241,Aldaris,57.00222,24.12334
3076,Allažu iela,56.99845,24.12362
3084,Allažu iela,56.99815,24.12350
3075,Sarkandaugavas iela,56.99543,24.12592
3085,Tilta iela,56.99510,24.12628
3074,Duntes iela,56.99344,24.12329
1614,Saulīši,56.92999,24.26235
1615,Cidoniju iela,56.92609,24.25798
1616,Cidoniju iela,56.92545,24.25875
1200,Ērgļu iela,56.93412,24.24644
1201,Ērgļu iela,56.93409,24.24627
1619,Ozolu iela,56.93515,24.24408
1620,Ozolu iela,56.93524,24.24359
1617,Strazdiņu iela,56.92815,24.25491
1618,Strazdiņu iela,56.92866,24.25404
3109,Meža skola,56.98630,24.21433
3143,Meža skola,56.98637,24.21506
3247,Meža skola,56.98625,24.21517
3110,Sporta akadēmija,56.98531,24.20763
3142,Sporta akadēmija,56.98545,24.20834
1157,"Sporta bāze ""Biķernieki""",56.96499,24.23380
2019,Palmu iela,56.97774,24.18125
3117,VEF,56.97115,24.15993
3135,VEF,56.97148,24.16104
3114,45.vidusskola,56.97935,24.17670
3138,45.vidusskola,56.97900,24.17552
3111,Alfa,56.98433,24.20267
3141,Alfa,56.98426,24.20218
3113,Džutas iela,56.98150,24.18445
3139,Džutas iela,56.98121,24.18345
3116,Gustava Zemgala gatve,56.97365,24.16609
3136,Gustava Zemgala gatve,56.97398,24.16667
3112,Krustabaznīcas iela,56.98336,24.19456
3140,Krustabaznīcas iela,56.98327,24.19414
3115,Lēdmanes iela,56.97734,24.17206
3137,Lēdmanes iela,56.97724,24.17186
1558,Tīraine,56.88845,24.06243
3191,Viesītes iela,56.91967,24.09788
3204,Viesītes iela,56.92028,24.09732
3195,Torņakalna stacija,56.93049,24.08704
3200,Torņakalna stacija,56.93017,24.08835
3192,Vienības gatve/Bērnu slimnīca,56.92118,24.08945
3193,Jelgavas iela,56.92388,24.08988
3202,Jelgavas iela/Bērnu slimnīca,56.92366,24.08979
3194,Satiksmes iela,56.92736,24.09073
3201,Satiksmes iela,56.92760,24.09078
3203,Telts iela,56.92008,24.08890
3009,Grēcinieku iela,56.94570,24.10606
3012,Grēcinieku iela,56.94595,24.10565
3010,13.janvāra iela,56.94604,24.11387
3021,Zasulauka stacija,56.94216,24.05212
3000,Zasulauka stacija,56.94190,24.05316
3001,Kalnciema iela,56.94074,24.05733
3020,Kalnciema iela,56.94049,24.05752
3022,Elvīras iela,56.94615,24.04844
3030,Elvīras iela,56.94587,24.04864
3023,Kandavas iela,56.94892,24.04690
3029,Kandavas iela,56.94896,24.04683
3188,Mazā Stērstu iela,56.91370,24.11707
3207,Mazā Stērstu iela,56.91381,24.11626
3190,Skaistkalnes iela,56.91788,24.10355
3205,Skaistkalnes iela,56.91774,24.10387
3189,Stērstu iela/CSDD,56.91513,24.11186
3206,Stērstu iela/CSDD,56.91495,24.11233
3187,Ziepniekkalna iela,56.91514,24.12305
3208,Ziepniekkalna iela,56.91402,24.12143
1027,13.janvāra iela,56.94674,24.11642
0701,Pļavnieki,56.93281,24.20159
0194a,Esplanāde,56.95377,24.11645
0717,Gaiļezers,56.96790,24.23972
8012a,Stūrmaņu iela,57.03341,24.04858
0722,Centrālā stacija,56.94536,24.11985
0078a,Centrāltirgus,56.94516,24.11977
8002,T/C Domina Shopping,56.96564,24.16377
1463a,Kooperatīva iela,56.95208,24.03037
0719,Lubānas iela,56.93200,24.17376
1028a,Stacijas laukums,56.94796,24.11954
0703,Stacijas laukums,56.94752,24.11934
0706,Murjāņu iela,56.98771,24.23040
0711,MTS,56.94832,24.12221
7997,Latvenergo,56.95516,24.21939
7998,Latvenergo,56.95507,24.21900
2035,Tukuma iela,56.93301,24.07082
0721,Turgeņeva iela,56.94514,24.12404
0723,Višķu iela,56.89923,24.21506
0716,Šampēteris,56.93920,24.03833
4002,Prāgas iela,56.94507,24.11564
1125,Lidosta Rīga   P1,56.92154,23.98050
1180b,Daugavgrīvas g/p,57.03616,24.01926
0344b,Pērnavas iela,56.96607,24.14830
1245,Gobas iela,57.03304,24.04849
0724,Baznīcas iela,56.95684,24.11968
1800,Stabu iela,56.95846,24.12392
0710,Dreiliņi,56.95044,24.24352
0712,Dreiliņi,56.95143,24.24384
7024,Spilves iela,56.97200,24.06387
1082b,Zolitūdes iela,56.95323,23.99938
0714,Imanta,56.95877,23.99767
7010,Rušonu iela,56.91550,24.18558
0200,Ķengarags,56.92219,24.18109
7023,Kalnciema iela,56.93286,24.03124
7022,Kukšu iela,56.93134,24.03405
7021,Dārzciema iela,56.95068,24.18621
7026,Jūrkalnes iela,56.94272,24.02740
7025,Jūrkalnes iela,56.94261,24.02756
9112,Dzērbenes iela,56.97782,24.19331
9111,Kuršu iela,56.98018,24.19205
0720,"Slimnīca ""Linezers""",56.97624,24.19814
0444b,"Stacija ""Vecdaugava""",57.05943,24.10562
7011,Kreimeņu iela,57.03566,24.09461
7020,Meldru iela,57.03475,24.08802
